[
  {
    "id": 1,
    "name": "池島寮",
    "postalCode": "〒552-0015",
    "address": "大阪府大阪市港区池島2丁目5-52",
    "phone": "☎06-6571-0200",
    "lat": 34.655871,
    "lng": 135.451618
  },
  {
    "id": 2,
    "name": "尼崎市尼崎学園",
    "postalCode": "〒651-1502",
    "address": "兵庫県神戸市北区道場町3083",
    "phone": "☎078-985-2133",
    "lat": 34.690083,
    "lng": 135.195511
  },
  {
    "id": 3,
    "name": "あおぞら",
    "postalCode": "〒596-0808",
    "address": "大阪府岸和田市三田町614-1",
    "phone": "☎072-444-0100",
    "lat": 34.4524525,
    "lng": 135.4326598
  },
  {
    "id": 4,
    "name": "双葉学園",
    "postalCode": "〒657-0011",
    "address": "兵庫県神戸市灘区鶴甲1丁目5-1",
    "phone": "☎078-841-2792",
    "lat": 34.7333428,
    "lng": 135.2398159
  },
  {
    "id": 5,
    "name": "青葉学園",
    "postalCode": "〒621-0031",
    "address": "京都府亀岡市稗田野町太田高星7",
    "phone": "☎0771-22-0651",
    "lat": 35.026246,
    "lng": 135.541945
  },
  {
    "id": 6,
    "name": "京都大和の家",
    "postalCode": "〒619-0243",
    "address": "京都府相楽郡精華町南稲八妻笛竹37",
    "phone": "☎0774-98-3840",
    "lat": 34.7615503,
    "lng": 135.7833467
  },
  {
    "id": 7,
    "name": "旭学園",
    "postalCode": "〒640-0332",
    "address": "和歌山県和歌山市冬野654番地9",
    "phone": "☎073-479-0080",
    "lat": 34.1884324,
    "lng": 135.2086812
  },
  {
    "id": 8,
    "name": "紀南学園",
    "postalCode": "〒647-0081",
    "address": "和歌山県新宮市新宮8018",
    "phone": "☎0735-22-3004",
    "lat": 33.7113521,
    "lng": 135.9973804
  },
  {
    "id": 9,
    "name": "紀南学園",
    "postalCode": "〒524-0004",
    "address": "滋賀県守山市笠原町1257-1",
    "phone": "☎077-582-2887",
    "lat": 35.092558,
    "lng": 135.986068
  },
  {
    "id": 10,
    "name": "鹿深の家",
    "postalCode": "〒520-3402",
    "address": "滋賀県甲賀市甲賀町小佐治3571",
    "phone": "☎0748-88-2015",
    "lat": 34.941559,
    "lng": 136.212941
  },
  {
    "id": 11,
    "name": "愛染寮",
    "postalCode": "〒630-0257",
    "address": "奈良県生駒市元町2丁目14-8",
    "phone": "☎0743-74-1172",
    "lat": 34.6896683,
    "lng": 135.6901996
  },
  {
    "id": 12,
    "name": "飛鳥学院",
    "postalCode": "〒633-0053",
    "address": "奈良県桜井市谷480",
    "phone": "☎0744-42-2831",
    "lat": 34.507851,
    "lng": 135.8434028
  }
]
